[
  {
    "name": "Wolf Hollow - North American Wolf Foundation",
    "lat": 42.6561407,
    "lon": -70.815038,
    "imageURL": null,
    "description": "Educational sanctuary dedicated to wolf conservation and education, featuring guided tours and educational programs about North American wolves.",
    "info": null,
    "categories": ["nature", "park"],
    "url": "https://www.wolfhollowipswich.org/"
  },
  {
    "name": "Halibut Point State Park",
    "lat": 42.689018,
    "lon": -70.632564,
    "imageURL": null,
    "description": "Scenic coastal park featuring rocky shores, tide pools, and panoramic ocean views from former granite quarry site.",
    "info": null,
    "categories": [
      "park",
      "nature"
    ],
    "url": "https://www.mass.gov/locations/halibut-point-state-park"
  },
  {
    "name": "The Mary Baker Eddy Library",
    "lat": 42.344981,
    "lon": -71.086029,
    "imageURL": null,
    "description": "Research library and museum dedicated to the life and work of Mary Baker Eddy, founder of Christian Science, featuring the famous Mapparium globe.",
    "info": null,
    "categories": [
      "bookstore",
      "museum",
      "religious"
    ],
    "url": "https://www.marybakereddylibrary.org/"
  },
  {
    "name": "Adams National Historical Park",
    "lat": 42.256378,
    "lon": -71.0117588,
    "imageURL": null,
    "description": "Historic homes and landscapes associated with four generations of the Adams family, including presidents John Adams and John Quincy Adams.",
    "info": null,
    "categories": [
      "historic",
      "park",
      "nps"
    ],
    "url": "https://www.nps.gov/adam/"
  },
  {
    "name": "Frederick Law Olmsted National Historic Site",
    "lat": 42.325362,
    "lon": -71.1323369,
    "imageURL": null,
    "description": "The home, office, and archives of America's foremost landscape architect, featuring exhibits on his design philosophy and major works.",
    "info": null,
    "categories": [
      "historic",
      "nps"
    ],
    "url": "https://www.nps.gov/frla/"
  },
  {
    "name": "John Fitzgerald Kennedy National Historic Site",
    "lat": 42.346965,
    "lon": -71.123267,
    "imageURL": null,
    "description": "Birthplace and boyhood home of President John F. Kennedy, preserved as it was during his early years.",
    "info": null,
    "categories": [
      "historic",
      "nps"
    ],
    "url": "https://www.nps.gov/jofi/"
  },
  {
    "name": "Lowell National Historical Park",
    "lat": 42.6459878,
    "lon": -71.3204567,
    "imageURL": null,
    "description": "Preserved mill complex showcasing America's Industrial Revolution, with working textile demonstrations and canal boat tours.",
    "info": null,
    "categories": [
      "historic",
      "park",
      "nps"
    ],
    "url": "https://www.nps.gov/lowe/"
  },
  {
    "name": "Lowell National Historical Park Visitor Center",
    "lat": 42.6445498,
    "lon": -71.3126814,
    "imageURL": null,
    "description": "Gateway to Lowell's industrial heritage with exhibits, films, and tour information for the historic mill district.",
    "info": null,
    "categories": [
      "historic",
      "park",
      "nps"
    ],
    "url": "https://www.nps.gov/lowe/"
  },
  {
    "name": "Boott Cotton Mills Museum",
    "lat": 42.6476031,
    "lon": -71.3074327,
    "imageURL": null,
    "description": "Interactive museum in a restored 1835 textile mill featuring working power looms and exhibits on industrial working conditions.",
    "info": null,
    "categories": [
      "museum",
      "historic"
    ],
    "url": "https://www.nps.gov/lowe/learn/historyculture/boott-cotton-mills-museum.htm"
  },
  {
    "name": "The New England Quilt Museum",
    "lat": 42.6454111,
    "lon": -71.3120889,
    "imageURL": null,
    "description": "Dedicated to preserving and celebrating the art and history of quilting with rotating exhibitions of traditional and contemporary works.",
    "info": null,
    "categories": [
      "museum",
      "art"
    ],
    "url": "https://www.neqm.org/"
  },
  {
    "name": "National Streetcar Museum at Lowell",
    "lat": 42.6451182,
    "lon": -71.312804,
    "imageURL": null,
    "description": "Historic trolley cars and streetcar memorabilia showcasing New England's transportation heritage.",
    "info": null,
    "categories": [
      "museum",
      "historic"
    ],
    "url": "https://www.nps.gov/lowe/learn/historyculture/national-streetcar-museum.htm"
  },
  {
    "name": "Patrick J Mogan Cultural Center",
    "lat": 42.64764,
    "lon": -71.3089159,
    "imageURL": null,
    "description": "Cultural center celebrating Lowell's immigrant heritage through exhibits, performances, and community programs.",
    "info": null,
    "categories": ["museum", "historic"],
    "url": "https://www.nps.gov/lowe/learn/historyculture/patrick-j-mogan-cultural-center.htm"
  },
  {
    "name": "Mill Girls and Immigrants Exhibit (Lowell NHP)",
    "lat": 42.6476801,
    "lon": -71.3089874,
    "imageURL": null,
    "description": "Exhibit chronicling the experiences of young women who worked in Lowell's textile mills and the immigrant communities that followed.",
    "info": null,
    "categories": [
      "museum",
      "historic"
    ],
    "url": "https://www.nps.gov/lowe/"
  },
  {
    "name": "Minute Man National Historical Park",
    "lat": 42.4573132,
    "lon": -71.3182347,
    "imageURL": null,
    "description": "Site of the opening battle of the American Revolution, preserving the historic landscape along the Battle Road.",
    "info": null,
    "categories": [
      "historic",
      "park",
      "nps"
    ],
    "url": "https://www.nps.gov/mima/"
  },
  {
    "name": "North Bridge Visitor Center",
    "lat": 42.4709282,
    "lon": -71.3525461,
    "imageURL": null,
    "description": "Visitor center at the site of the shot heard round the world, offering exhibits and films about April 19, 1775.",
    "info": null,
    "categories": [
      "historic",
      "nps"
    ],
    "url": "https://www.nps.gov/mima/"
  },
  {
    "name": "Major John Buttrick House",
    "lat": 42.4722842,
    "lon": -71.3534286,
    "imageURL": null,
    "description": "Historic colonial home of the militia leader who commanded the colonial forces at Concord's North Bridge during the Revolutionary War.",
    "info": null,
    "categories": [
      "landmark",
      "historic"
    ],
    "url": "https://www.nps.gov/mima/"
  },
  {
    "name": "Hartwell Tavern",
    "lat": 42.4538493,
    "lon": -71.2932308,
    "imageURL": null,
    "description": "Restored 18th-century tavern where travelers once stopped for food, drink, and overnight lodging along the old Boston Post Road.",
    "info": null,
    "categories": [
      "historic",
      "drinking",
      "food"
    ],
    "url": "https://www.nps.gov/mima/"
  },
  {
    "name": "The Wayside Home of Authors",
    "lat": 42.4590564,
    "lon": -71.3330264,
    "imageURL": null,
    "description": "Historic home where Nathaniel Hawthorne, Louisa May Alcott, and Margaret Sidney lived and wrote their famous works.",
    "info": null,
    "categories": ["historic", "landmark", "bookstore"],
    "url": "https://www.nps.gov/mima/learn/historyculture/the-wayside.htm"
  },
  {
    "name": "New Bedford Whaling National Historical Park",
    "lat": 41.6357425,
    "lon": -70.9239793,
    "imageURL": null,
    "description": "Preserves the history of the world's premier whaling port, featuring the Whaling Museum and historic waterfront district.",
    "info": null,
    "categories": [
      "historic",
      "park",
      "nps"
    ],
    "url": "https://www.nps.gov/nebe/"
  },
  {
    "name": "Faneuil Hall Visitor Center",
    "lat": 42.3600124,
    "lon": -71.0562767,
    "imageURL": null,
    "description": "Information center for Boston's Freedom Trail and Revolutionary War sites, located in the historic Cradle of Liberty.",
    "info": null,
    "categories": [
      "landmark",
      "historic"
    ],
    "url": "https://www.nps.gov/bost/"
  },
  {
    "name": "Old South Meeting House",
    "lat": 42.3571796,
    "lon": -71.0584927,
    "imageURL": null,
    "description": "Site of the Boston Tea Party meeting in 1773, this historic church was the largest building in colonial Boston.",
    "info": null,
    "categories": [
      "landmark",
      "historic",
      "religious"
    ],
    "url": "https://www.revolutionaryspaces.org/old-south-meeting-house/"
  },
  {
    "name": "Old State House",
    "lat": 42.3587352,
    "lon": -71.057454,
    "imageURL": null,
    "description": "Boston's oldest public building and the site of the Boston Massacre, now a museum of Revolutionary history.",
    "info": null,
    "categories": [
      "landmark",
      "historic",
      "museum"
    ],
    "url": "https://www.revolutionaryspaces.org/old-state-house/"
  },
  {
    "name": "The Paul Revere House",
    "lat": 42.363739,
    "lon": -71.0537,
    "imageURL": null,
    "description": "Downtown Boston's oldest building and home of patriot Paul Revere at the time of his famous midnight ride.",
    "info": null,
    "categories": [
      "landmark",
      "historic"
    ],
    "url": "https://www.paulreverehouse.org/"
  },
  {
    "name": "Old North Church",
    "lat": 42.3663259,
    "lon": -71.0543944,
    "imageURL": null,
    "description": "Boston's oldest standing church building, famous for the two lanterns that signaled Paul Revere's midnight ride.",
    "info": null,
    "categories": [
      "religious",
      "historic"
    ],
    "url": "https://oldnorth.com/"
  },
  {
    "name": "Bunker Hill Monument",
    "lat": 42.3763541,
    "lon": -71.0607764,
    "imageURL": null,
    "description": "221-foot granite obelisk commemorating the first major battle of the American Revolution, with 294 steps to the top.",
    "info": null,
    "categories": [
      "historic",
      "landmark"
    ],
    "url": "https://www.nps.gov/bost/"
  },
  {
    "name": "Charlestown Navy Yard",
    "lat": 42.3731478,
    "lon": -71.0574887,
    "imageURL": null,
    "description": "Historic naval shipyard where USS Constitution and other famous ships were built and maintained from 1801 to 1974.",
    "info": null,
    "categories": ["historic", "nps"],
    "url": "https://www.nps.gov/bost/"
  },
  {
    "name": "USS Constitution",
    "lat": 42.3724612,
    "lon": -71.056583,
    "imageURL": null,
    "description": "Old Ironsides, the world's oldest commissioned naval vessel still afloat, launched in 1797 and still sailing today.",
    "info": null,
    "categories": ["historic", "landmark"],
    "url": "https://ussconstitution.navy.mil/"
  },
  {
    "name": "USS Constitution Museum",
    "lat": 42.3739796,
    "lon": -71.0554239,
    "imageURL": null,
    "description": "Interactive museum telling the story of Old Ironsides and the sailors who served aboard America's Ship of State.",
    "info": null,
    "categories": [
      "museum",
      "historic"
    ],
    "url": "https://ussconstitutionmuseum.org/"
  },
  {
    "name": "USS Cassin Young",
    "lat": 42.3722164,
    "lon": -71.054468,
    "imageURL": null,
    "description": "Built in 1943 in San Pedro, California, USS Cassin Young is one of 175 Fletcher-class destroyers built during World War II. She engaged in seven Pacific battles during World War II, survived two Kamikaze hits, and served another full decade beyond her expected lifetime.",
    "info": null,
    "categories": ["historic", "landmark"],
    "url": "https://www.nps.gov/bost/"
  },
  {
    "name": "Dorchester Heights",
    "lat": 42.3328617,
    "lon": -71.0457531,
    "imageURL": null,
    "description": "Site where George Washington placed cannons to force British evacuation of Boston in 1776, featuring monument and harbor views.",
    "info": null,
    "categories": ["historic", "park"],
    "url": "https://www.nps.gov/bost/"
  },
  {
    "name": "Boston Athenaeum",
    "lat": 42.3579151,
    "lon": -71.0620802,
    "imageURL": null,
    "description": "One of America's oldest independent libraries, famous for its rare book collection and the notorious book bound in human skin. Look for the skin book.",
    "info": null,
    "categories": ["bookstore", "historic", "quirky"],
    "url": "https://bostonathenaeum.org/"
  },
  {
    "name": "Brook Farm Historic Site",
    "lat": 42.2909589,
    "lon": -71.1754324,
    "imageURL": null,
    "description": "Site of the famous 1840s utopian community where transcendentalists like Nathaniel Hawthorne lived and worked.",
    "info": null,
    "categories": [
      "historic",
      "park"
    ],
    "url": "https://www.mass.gov/locations/brook-farm-historic-site"
  },
  {
    "name": "Ether Dome",
    "lat": 42.3634637,
    "lon": -71.0679234,
    "imageURL": null,
    "description": "Historic surgical amphitheater at Massachusetts General Hospital where the first public demonstration of anesthesia took place in 1846.",
    "info": null,
    "categories": ["historic", "landmark"],
    "url": "https://www.massgeneral.org/museum/exhibits/ether-dome"
  },
  {
    "name": "James P. Kelleher Rose Garden",
    "lat": 42.3419564,
    "lon": -71.0949218,
    "imageURL": null,
    "description": "Beautiful rose garden in the Back Bay Fens featuring hundreds of rose varieties blooming from June through October.",
    "info": null,
    "categories": ["park", "nature"],
    "url": "https://www.emeraldnecklace.org/park-overview/back-bay-fens/"
  },
  {
    "name": "Franklin Park - Overlook Ruins",
    "lat": 42.3081224,
    "lon": -71.0969456,
    "imageURL": null,
    "description": "The often-overlooked ruins of one of the first buildings designed by famous landscape architect Frederick Olmsted.",
    "info": null,
    "categories": [
      "park",
      "historic"
    ],
    "url": "https://www.emeraldnecklace.org/park-overview/franklin-park/"
  },
  {
    "name": "Pawtucket Dam",
    "lat": 42.6487022,
    "lon": -71.3314501,
    "imageURL": null,
    "description": "Historic dam that powered Lowell's textile mills during the Industrial Revolution, still functioning today for flood control.",
    "info": null,
    "categories": ["historic", "landmark"],
    "url": "https://www.nps.gov/lowe/"
  },
  {
    "name": "Museum of Science",
    "lat": 42.367452,
    "lon": -71.0711201,
    "imageURL": null,
    "description": "Interactive science museum featuring hands-on exhibits, an IMAX theater, and the Van de Graaff generator lightning show.",
    "info": null,
    "categories": [
      "museum"
    ],
    "url": "https://www.mos.org/"
  },
  {
    "name": "Winthrop Lane",
    "lat": 42.3549996,
    "lon": -71.0579766,
    "imageURL": null,
    "description": "Check for bricks - These whimsical works of art tell the story of the city's past and present.",
    "info": null,
    "categories": [
      "art"
    ],
    "url": null
  },
  {
    "name": "King's Chapel",
    "lat": 42.3580116,
    "lon": -71.0601562,
    "imageURL": null,
    "description": "Historic Unitarian Universalist church built on Anglican foundations, featuring beautiful Georgian architecture. Visit the crypt.",
    "info": null,
    "categories": ["religious", "historic"],
    "url": "https://www.kings-chapel.org/"
  },
  {
    "name": "Creek Square",
    "lat": 42.3613292,
    "lon": -71.0565184,
    "imageURL": null,
    "description": "This historic patch of real estate offers a glimpse of colonial Boston",
    "info": null,
    "categories": [
      "historic",
      "landmark"
    ],
    "url": null
  },
  {
    "name": "Jack Kerouac's Grave",
    "lat": 42.6160091,
    "lon": -71.3067878,
    "imageURL": null,
    "description": "Final resting place of Beat Generation author Jack Kerouac in Edson Cemetery, where fans leave offerings of beer and cigarettes.",
    "info": null,
    "categories": ["historic", "landmark"],
    "url": null
  },
  {
    "name": "The Harvard Museum of Natural History",
    "lat": 42.3784626,
    "lon": -71.1155576,
    "imageURL": null,
    "description": "Famous for the Glass Flowers collection, meteorites, minerals, and specimens showcasing the natural world.",
    "info": null,
    "categories": [
      "museum",
      "nature"
    ],
    "url": "https://hmnh.harvard.edu/"
  },
  {
    "name": "Modica Way",
    "lat": 42.3648969,
    "lon": -71.1024837,
    "imageURL": null,
    "description": "An alley way dedicated to graffiti and street art is a constantly changing street gallery.",
    "info": null,
    "categories": [
      "art",
      "quirky"
    ],
    "url": null
  },
  {
    "name": "Massachusetts Institute of Technology",
    "lat": 42.360091,
    "lon": -71.09416,
    "imageURL": null,
    "description": "World-renowned institute of technology featuring innovative architecture and the famous infinite corridor.",
    "info": null,
    "categories": ["landmark"],
    "url": "https://web.mit.edu/"
  },
  {
    "name": "The Museum Of Bad Art",
    "lat": 42.3966524,
    "lon": -71.1230653,
    "imageURL": null,
    "description": "The world's only museum dedicated to the collection, preservation, exhibition and celebration of bad art in all its forms.",
    "info": null,
    "categories": [
      "art",
      "museum",
      "quirky"
    ],
    "url": "https://museumofbadart.org/"
  },
  {
    "name": "Somerville Theatre",
    "lat": 42.3966407,
    "lon": -71.123001,
    "imageURL": null,
    "description": "Historic independent movie theater and music venue featuring first-run films and live performances since 1914.",
    "info": null,
    "categories": [
      "theater",
      "music"
    ],
    "url": "https://somervilletheatre.com/"
  },
  {
    "name": "Sky Bar",
    "lat": 42.3619726,
    "lon": -71.4162695,
    "imageURL": null,
    "description": "Rooftop bar and restaurant offering panoramic views and craft cocktails in a relaxed atmosphere.",
    "info": null,
    "categories": [
      "drinking",
      "food"
    ],
    "url": null
  },
  {
    "name": "Assabet River National Wildlife Refuge",
    "lat": 42.4078524,
    "lon": -71.4714928,
    "imageURL": null,
    "description": "In the middle of a New England forest sit the crumbling ruins of World War II-era ammunition storage bunkers.",
    "info": null,
    "categories": [
      "historic",
      "nature",
      "park"
    ],
    "url": "https://www.fws.gov/refuge/assabet-river"
  },
  {
    "name": "Ford's Folly",
    "lat": 42.3540626,
    "lon": -71.4603016,
    "imageURL": null,
    "description": "This dam in the woods, built by Henry Ford with only manpower and oxen, holds no water and serves no purpose.",
    "info": null,
    "categories": ["historic", "quirky"],
    "url": null
  },
  {
    "name": "The Redstone Schoolhouse",
    "lat": 42.3586368,
    "lon": -71.4712297,
    "imageURL": null,
    "description": "Historic one-room schoolhouse that inspired the nursery rhyme Mary Had a Little Lamb, now a museum.",
    "info": null,
    "categories": [
      "landmark",
      "historic"
    ],
    "url": "https://sudburyhistoricalsociety.org/"
  },
  {
    "name": "Newton City Hall",
    "lat": 42.3374612,
    "lon": -71.2087993,
    "imageURL": null,
    "description": "Battle dioramas in the Veterans Wing - These impressively detailed battle scenes depict the violence and tragedy of war in miniature.",
    "info": null,
    "categories": [
      "landmark"
    ],
    "url": "https://www.newtonma.gov/"
  },
  {
    "name": "Echo Bridge",
    "lat": 42.3145041,
    "lon": -71.2273649,
    "imageURL": null,
    "description": "A historic bridge with a lovely acoustic anomaly.",
    "info": null,
    "categories": [
      "historic",
      "landmark"
    ],
    "url": null
  },
  {
    "name": "Quincy Quarries Reservation",
    "lat": 42.243293,
    "lon": -71.034186,
    "imageURL": null,
    "description": "From economic backbone of a community to deadly diving hole, these former stone quarries are now a park for rock climbers and graffiti artists.",
    "info": null,
    "categories": [
      "art",
      "park",
      "recreation"
    ],
    "url": "https://www.mass.gov/locations/quincy-quarries-reservation"
  },
  {
    "name": "Brattle Book Shop",
    "lat": 42.3546652,
    "lon": -71.0619981,
    "imageURL": null,
    "description": "One of America's oldest antiquarian bookshops, featuring three floors of rare books and an outdoor sale lot.",
    "info": null,
    "categories": [
      "shopping",
      "bookstore"
    ],
    "url": "https://brattlebookshop.com/"
  },
  {
    "name": "Metropolitan Waterworks Museum",
    "lat": 42.3317473,
    "lon": -71.1555548,
    "imageURL": null,
    "description": "Beautiful steampunk ghosts of early Massachusetts.",
    "info": null,
    "categories": [
      "museum",
      "historic"
    ],
    "url": "https://waterworksmuseum.org/"
  },
  {
    "name": "American Heritage Museum",
    "lat": 42.3916108,
    "lon": -71.5048688,
    "imageURL": null,
    "description": "Military history museum featuring tanks, aircraft, and artifacts from American conflicts spanning three centuries.",
    "info": null,
    "categories": [
      "historic",
      "museum"
    ],
    "url": "https://americanheritagemuseum.org/"
  },
  {
    "name": "Arthur & Elizabeth Schlesinger Library",
    "lat": 42.3757717,
    "lon": -71.1231265,
    "imageURL": null,
    "description": "Research library at Harvard focusing on women's history, featuring a huge culinary collection and manuscripts.",
    "info": null,
    "categories": [
      "bookstore",
      "historic"
    ],
    "url": "https://schlesinger.radcliffe.harvard.edu/"
  },
  {
    "name": "Harvard Film Archive",
    "lat": 42.3736458,
    "lon": -71.1142609,
    "imageURL": null,
    "description": "Academic film archive and cinema showing rare, experimental, and international films not found elsewhere.",
    "info": null,
    "categories": ["cinema", "art"],
    "url": "https://harvardfilmarchive.org/"
  },
  {
    "name": "Powderhouse Park",
    "lat": 42.4003697,
    "lon": -71.1163813,
    "imageURL": null,
    "description": "Small park surrounding the historic Old Powder House, a Revolutionary War era gunpowder storage facility.",
    "info": null,
    "categories": [
      "landmark",
      "park",
      "historic"
    ],
    "url": "https://www.somervillema.gov/departments/parks-recreation-facilities/parks-playgrounds/powderhouse-park"
  },
  {
    "name": "Charles River Museum of Industry & Innovation",
    "lat": 42.373122,
    "lon": -71.2335277,
    "imageURL": null,
    "description": "A steampunk wonderland that preserves America's history of industrial innovation.",
    "info": null,
    "categories": [
      "museum",
      "historic"
    ],
    "url": "https://www.charlesrivermuseum.org/"
  },
  {
    "name": "Club Passim",
    "lat": 42.3742524,
    "lon": -71.1200383,
    "imageURL": null,
    "description": "Legendary folk music club where Joan Baez, Bob Dylan, and countless others launched their careers in an intimate setting.",
    "info": null,
    "categories": ["music", "drinking"],
    "url": "https://www.passim.org/"
  },
  {
    "name": "Boston Cyberarts Gallery",
    "lat": 42.3103945,
    "lon": -71.1075532,
    "imageURL": null,
    "description": "Contemporary gallery showcasing digital and new media art, featuring interactive installations and virtual reality experiences.",
    "info": null,
    "categories": [
      "art",
      "museum"
    ],
    "url": "https://bostoncyberarts.org/"
  },
  {
    "name": "Reflecting Pool at the Christian Science Plaza",
    "lat": 42.3444346,
    "lon": -71.0839025,
    "imageURL": null,
    "description": "Massive 670-foot reflecting pool creating a serene urban oasis in the heart of Boston's Back Bay.",
    "info": null,
    "categories": [
      "landmark",
      "religious"
    ],
    "url": "https://www.christianscience.com/press-room/a-journalism-resource/christian-science-plaza"
  },
  {
    "name": "Washington Tower",
    "lat": 42.3696185,
    "lon": -71.1440773,
    "imageURL": null,
    "description": "Stone observation tower built
