[
  {
    "name": "citizenM New York Bowery Hotel",
    "lat": 40.7207157,
    "lon": -73.9934843,
    "icon": null,
    "imageURL": null,
    "description": "Modern hotel featuring a striking staircase that recreates the famous 5Pointz graffiti mecca",
    "info": null,
    "categories": ["landmark", "art"],
    "url": "https://www.citizenm.com/hotels/new-york/bowery"
  },
  {
    "name": "Dixon Place",
    "lat": 40.7206015,
    "lon": -73.9928199,
    "icon": null,
    "imageURL": null,
    "description": "Experimental theater and performance space showcasing cutting-edge contemporary works",
    "info": null,
    "categories": ["theater", "art"],
    "url": "https://www.dixonplace.org/"
  },
  {
    "name": "Freeman Alley - Graffiti",
    "lat": 40.7217389,
    "lon": -73.9925588,
    "icon": null,
    "imageURL": null,
    "description": "Historic alley transformed into an outdoor street art gallery with ever-changing murals",
    "info": null,
    "categories": ["art", "neighborhood"],
    "url": null
  },
  {
    "name": "Bluestockings Cooperative Bookstore",
    "lat": 40.7189325,
    "lon": -73.9859184,
    "icon": null,
    "imageURL": null,
    "description": "New York City's only radical feminist independent bookstore and community space",
    "info": null,
    "categories": ["bookstore"],
    "url": "https://bluestockings.com/"
  },
  {
    "name": "New Museum",
    "lat": 40.7223376,
    "lon": -73.9928905,
    "icon": null,
    "imageURL": null,
    "description": "Contemporary art museum in a striking Bowery building, dedicated to new art and new ideas",
    "info": null,
    "categories": ["museum", "art"],
    "url": "https://www.newmuseum.org/"
  },
  {
    "name": "Kehila Kedosha Janina Synagogue and Museum",
    "lat": 40.71858,
    "lon": -73.99118,
    "icon": null,
    "imageURL": null,
    "description": "The only Romaniote synagogue in the Western hemisphere and museum documenting Greek Jewish history",
    "info": null,
    "categories": ["religious", "museum", "historic"],
    "url": "https://www.kkjsm.org/"
  },
  {
    "name": "Economy Candy",
    "lat": 40.720105,
    "lon": -73.987861,
    "icon": null,
    "imageURL": null,
    "description": "The oldest candy shop in New York City, established in 1937, with a rainbow-colored inventory",
    "info": null,
    "categories": ["food", "shopping", "historic"],
    "url": "https://www.economycandy.com/"
  },
  {
    "name": "Tenement Museum",
    "lat": 40.718818,
    "lon": -73.9900876,
    "icon": null,
    "imageURL": null,
    "description": "Preserved tenement building showcasing the immigrant experience in historic Lower East Side apartments",
    "info": null,
    "categories": ["museum", "historic"],
    "url": "https://www.tenement.org/"
  },
  {
    "name": "Angel Orensanz Foundation",
    "lat": 40.7211655,
    "lon": -73.9857196,
    "icon": null,
    "imageURL": null,
    "description": "The oldest surviving synagogue in New York City, now a soaring contemporary art space",
    "info": null,
    "categories": ["art", "historic", "religious"],
    "url": "https://www.orensanz.org/"
  },
  {
    "name": "International Center of Photography Museum",
    "lat": 40.7179913,
    "lon": -73.9886867,
    "icon": null,
    "imageURL": null,
    "description": "Premier photography museum featuring contemporary and historical exhibitions",
    "info": null,
    "categories": ["museum", "art"],
    "url": "https://www.icp.org/"
  },
  {
    "name": "Museum at Eldridge Street",
    "lat": 40.7147484,
    "lon": -73.9935561,
    "icon": null,
    "imageURL": null,
    "description": "America's oldest Eastern European synagogue, a sanctuary for Lower East Side immigrants",
    "info": null,
    "categories": ["museum", "historic", "religious"],
    "url": "https://www.eldridgestreet.org/"
  },
  {
    "name": "The Pickle Guys",
    "lat": 40.716437,
    "lon": -73.989062,
    "icon": null,
    "imageURL": null,
    "description": "Traditional pickle shop serving the Lower East Side community with authentic Jewish-style pickles",
    "info": null,
    "categories": ["food", "historic"],
    "url": "https://www.picklestore.com/"
  },
  {
    "name": "Caveat",
    "lat": 40.7207414,
    "lon": -73.984434,
    "icon": null,
    "imageURL": null,
    "description": "Comedy club and performance space featuring nerdy comedy, science shows, and interactive entertainment",
    "info": null,
    "categories": ["theater", "music"],
    "url": "https://www.caveat.nyc/"
  },
  {
    "name": "Abrons Arts Center",
    "lat": 40.7153306,
    "lon": -73.9837917,
    "icon": null,
    "imageURL": null,
    "description": "Multi-disciplinary arts center presenting theater, dance, music, and visual arts programming",
    "info": null,
    "categories": ["art", "theater", "music"],
    "url": "https://www.henrystreet.org/abrons"
  },
  {
    "name": "Lower East Side Ecology Center",
    "lat": 40.7127869,
    "lon": -73.9761295,
    "icon": null,
    "imageURL": null,
    "description": "Environmental organization promoting sustainability through composting, recycling, and urban ecology programs",
    "info": null,
    "categories": ["nature", "art"],
    "url": "https://www.lesecologycenter.org/"
  },
  {
    "name": "M'Finda Kalunga Garden",
    "lat": 40.7211097,
    "lon": -73.991875,
    "icon": null,
    "imageURL": null,
    "description": "Community garden dedicated to African diaspora culture and healing traditions",
    "info": null,
    "categories": ["nature", "park", "art"],
    "url": null
  },
  {
    "name": "TEATRO SEA",
    "lat": 40.7189391,
    "lon": -73.9862313,
    "icon": null,
    "imageURL": null,
    "description": "Latino theater company presenting bilingual performances and educational programs",
    "info": null,
    "categories": ["theater", "art"],
    "url": "https://www.sea-ny.org/"
  },
  {
    "name": "The Clemente Soto Vélez Cultural & Educational Center",
    "lat": 40.7192633,
    "lon": -73.9861142,
    "icon": null,
    "imageURL": null,
    "description": "Multi-use cultural center housed in a former public school, featuring theaters and galleries",
    "info": null,
    "categories": ["art", "theater", "historic"],
    "url": "https://www.csvculturalcenter.org/"
  },
  {
    "name": "Shi Eurasia",
    "lat": 40.71839,
    "lon": -73.9916818,
    "icon": null,
    "imageURL": null,
    "description": "Gallery and cultural space focusing on contemporary Asian and Eurasian art",
    "info": null,
    "categories": ["art"],
    "url": null
  },
  {
    "name": "601Artspace",
    "lat": 40.71721,
    "lon": -73.992177,
    "icon": null,
    "imageURL": null,
    "description": "Contemporary art gallery featuring emerging and established international artists",
    "info": null,
    "categories": ["art"],
    "url": "https://www.601artspace.com/"
  },
  {
    "name": "Pier 35",
    "lat": 40.7094517,
    "lon": -73.9884141,
    "icon": null,
    "imageURL": null,
    "description": "East River waterfront pier offering stunning Manhattan skyline views and recreational activities",
    "info": null,
    "categories": ["park", "nature"],
    "url": null
  },
  {
    "name": "CW Pencil Enterprise",
    "lat": 40.7152185,
    "lon": -73.9919334,
    "icon": null,
    "imageURL": null,
    "description": "Specialty shop dedicated entirely to pencils from around the world",
    "info": null,
    "categories": ["shopping", "quirky"],
    "url": "https://cwpencils.com/"
  },
  {
    "name": "Metrograph",
    "lat": 40.715143,
    "lon": -73.9911467,
    "icon": null,
    "imageURL": null,
    "description": "Boutique cinema showing new releases, restored classics, and rare films with restaurant and bookstore",
    "info": null,
    "categories": ["cinema", "bookstore", "food"],
    "url": "https://metrograph.com/"
  },
  {
    "name": "Daredevil Tattoo",
    "lat": 40.7143593,
    "lon": -73.9908657,
    "icon": null,
    "imageURL": null,
    "description": "Iconic tattoo shop with its own onsite museum featuring artifacts from early body art history",
    "info": null,
    "categories": ["museum", "quirky"],
    "url": "https://www.daredeviltattoo.com/"
  },
  {
    "name": "Aeon Bookstore",
    "lat": 40.7138286,
    "lon": -73.9909233,
    "icon": null,
    "imageURL": null,
    "description": "Independent bookstore specializing in philosophy, theory, and critical thought",
    "info": null,
    "categories": ["bookstore"],
    "url": null
  },
  {
    "name": "St Augustine's Episcopal Church",
    "lat": 40.7138338,
    "lon": -73.9831808,
    "icon": null,
    "imageURL": null,
    "description": "Historic church preserving rare slave galleries, hidden rooms designed for enslaved African Americans in the 1820s",
    "info": null,
    "categories": ["religious", "historic"],
    "url": "https://www.staugustineschurchnyc.org/"
  },
  {
    "name": "Bialystoker Synagogue",
    "lat": 40.7154991,
    "lon": -73.9832028,
    "icon": null,
    "imageURL": null,
    "description": "Historic Orthodox synagogue built in 1826, originally a Methodist church",
    "info": null,
    "categories": ["religious", "historic"],
    "url": "https://www.bialystoker.org/"
  },
  {
    "name": "PERROTIN NEW YORK",
    "lat": 40.7195864,
    "lon": -73.9892543,
    "icon": null,
    "imageURL": null,
    "description": "Contemporary art gallery representing international emerging and established artists",
    "info": null,
    "categories": ["art"],
    "url": "https://www.perrotin.com/"
  },
  {
    "name": "Alexander DiJulio",
    "lat": 40.7139005,
    "lon": -73.9893283,
    "icon": null,
    "imageURL": null,
    "description": "Contemporary art gallery featuring innovative works by emerging artists",
    "info": null,
    "categories": ["art"],
    "url": null
  },
  {
    "name": "56 HENRY",
    "lat": 40.712735,
    "lon": -73.995165,
    "icon": null,
    "imageURL": null,
    "description": "Contemporary art gallery showcasing cutting-edge works by international artists",
    "info": null,
    "categories": ["art"],
    "url": "https://www.56henry.com/"
  },
  {
    "name": "Biggies Bodega",
    "lat": 40.7143643,
    "lon": -73.990969,
    "icon": null,
    "imageURL": null,
    "description": "Iconic neighborhood bodega serving the Lower East Side community",
    "info": null,
    "categories": ["food", "neighborhood"],
    "url": null
  },
  {
    "name": "Meow Parlour",
    "lat": 40.715606,
    "lon": -73.9902572,
    "icon": null,
    "imageURL": null,
    "description": "Cat cafe where visitors can enjoy coffee while socializing with adoptable cats",
    "info": null,
    "categories": ["food", "quirky"],
    "url": "https://www.meowparlour.com/"
  },
  {
    "name": "Koneko",
    "lat": 40.7204578,
    "lon": -73.9841387,
    "icon": null,
    "imageURL": null,
    "description": "Japanese-inspired cat cafe offering matcha and the company of adoptable cats",
    "info": null,
    "categories": ["food", "quirky"],
    "url": "https://konekonyc.com/"
  },
  {
    "name": "Jackie Robinson Museum",
    "lat": 40.7234621,
    "lon": -74.0068304,
    "icon": null,
    "imageURL": null,
    "description": "Museum dedicated to the baseball legend and civil rights pioneer Jackie Robinson",
    "info": null,
    "categories": ["museum", "historic", "sports"],
    "url": "https://jackierobinson.org/"
  },
  {
    "name": "The Drawing Center",
    "lat": 40.7224094,
    "lon": -74.0028554,
    "icon": null,
    "imageURL": null,
    "description": "Museum dedicated to the art of drawing, featuring historical and contemporary works",
    "info": null,
    "categories": ["museum", "art"],
    "url": "https://drawingcenter.org/"
  },
  {
    "name": "Spring Street Salt Shed",
    "lat": 40.7259674,
    "lon": -74.0105148,
    "icon": null,
    "imageURL": null,
    "description": "Architecturally striking salt storage facility shaped like a giant granule of salt",
    "info": null,
    "categories": ["landmark", "quirky"],
    "url": null
  },
  {
    "name": "American Numismatic Society",
    "lat": 40.7235093,
    "lon": -74.0064435,
    "icon": null,
    "imageURL": null,
    "description": "Museum with 800,000 coins, paper money, and medals showcasing numismatic history",
    "info": null,
    "categories": ["museum", "historic"],
    "url": "https://numismatics.org/"
  },
  {
    "name": "New York City Fire Museum",
    "lat": 40.7255556,
    "lon": -74.0069444,
    "icon": null,
    "imageURL": null,
    "description": "Fire department history museum housed in a disused Manhattan firehouse",
    "info": null,
    "categories": ["museum", "historic"],
    "url": "https://www.nycfiremuseum.org/"
  },
  {
    "name": "The Broken Kilometer",
    "lat": 40.7240789,
    "lon": -74.0021075,
    "icon": null,
    "imageURL": null,
    "description": "Walter De Maria's minimalist installation featuring one kilometer of brass rods",
    "info": null,
    "categories": ["art", "museum"],
    "url": "https://www.diaart.org/"
  },
  {
    "name": "Color Factory - NYC Interactive Art Museum",
    "lat": 40.725773,
    "lon": -74.0053337,
    "icon": null,
    "imageURL": null,
    "description": "Immersive art experience featuring interactive color-themed installations",
    "info": null,
    "categories": ["museum", "art"],
    "url": "https://www.colorfactory.co/"
  },
  {
    "name": "The Basilica of St. Patrick's Old Cathedral",
    "lat": 40.7236472,
    "lon": -73.9954348,
    "icon": null,
    "imageURL": null,
    "description": "Historic cathedral with crypts and catacombs tours, the original Cathedral of New York",
    "info": null,
    "categories": ["religious", "historic", "museum"],
    "url": "https://oldcathedral.org/"
  },
  {
    "name": "Prada New York Broadway",
    "lat": 40.7245538,
    "lon": -73.9974984,
    "icon": null,
    "imageURL": null,
    "description": "Rem Koolhaas-designed flagship store featuring a giant wooden wave and glass elevator",
    "info": null,
    "categories": ["shopping", "landmark"],
    "url": "https://www.prada.com/"
  },
  {
    "name": "Judd Foundation",
    "lat": 40.723508,
    "lon": -73.9993609,
    "icon": null,
    "imageURL": null,
    "description": "Preserved studios and spaces of minimalist artist Donald Judd",
    "info": null,
    "categories": ["museum", "art"],
    "url": "https://juddfoundation.org/"
  },
  {
    "name": "SoHo Cast Iron Historic District",
    "lat": 40.7237831,
    "lon": -73.9998959,
    "icon": null,
    "imageURL": null,
    "description": "Historic district featuring the world's largest collection of cast-iron architecture",
    "info": null,
    "categories": ["historic", "neighborhood"],
    "url": null
  },
  {
    "name": "Sonos Store",
    "lat": 40.7245194,
    "lon": -74.0001278,
    "icon": null,
    "imageURL": null,
    "description": "Audio technology flagship store with immersive listening experiences",
    "info": null,
    "categories": ["shopping"],
    "url": "https://www.sonos.com/"
  },
  {
    "name": "McNally Jackson Books SoHo",
    "lat": 40.7254231,
    "lon": -74.0006905,
    "icon": null,
    "imageURL": null,
    "description": "Independent bookstore with carefully curated selection and on-site printing press",
    "info": null,
    "categories": ["bookstore"],
    "url": "https://www.mcnallyjackson.com/"
  },
  {
    "name": "39 Charlton St",
    "lat": 40.7272465,
    "lon": -74.0047875,
    "icon": null,
    "imageURL": null,
    "description": "Exceptionally preserved Federal-style house with original doors and leaded glass sidelights",
    "info": null,
    "categories": ["historic", "landmark"],
    "url": null
  },
  {
    "name": "37 Charlton St",
    "lat": 40.7272335,
    "lon": -74.0046957,
    "icon": null,
    "imageURL": null,
    "description": "Remarkably preserved Federal-style architecture with authentic period details",
    "info": null,
    "categories": ["historic", "landmark"],
    "url": null
  },
  {
    "name": "Charlton–King–Vandam Historic District",
    "lat": 40.7276731,
    "lon": -74.0032221,
    "icon": null,
    "imageURL": null,
    "description": "New York's greatest display of Federal-style houses from the early 19th century",
    "info": null,
    "categories": ["historic", "neighborhood"],
    "url": null
  },
  {
    "name": "Thompson Chemists",
    "lat": 40.7264426,
    "lon": -74.001023,
    "icon": null,
    "imageURL": null,
    "description": "Historic pharmacy serving the SoHo community since the early 20th century",
    "info": null,
    "categories": ["shopping", "historic"],
    "url": null
  },
  {
    "name": "Ear Inn",
    "lat": 40.7259222,
    "lon": -74.0094833,
    "icon": null,
    "imageURL": null,
    "description": "One of NYC's oldest bars, originally the home of Revolutionary War veteran James Brown",
    "info": null,
    "categories": ["drinking", "historic"],
    "url": "https://www.earinn.com/"
  },
  {
    "name": "HERE",
    "lat": 40.7251137,
    "lon": -74.0048398,
    "icon": null,
    "imageURL": null,
    "description": "Experimental theater and arts center presenting avant-garde performances",
    "info": null,
    "categories": ["theater", "art"],
    "url": "https://here.org/"
  },
  {
    "name": "Urban Glass House",
    "lat": 40.7258043,
    "lon": -74.0096809,
    "icon": null,
    "imageURL": null,
    "description": "Philip Johnson's final architectural project, a controversial glass cube in SoHo",
    "info": null,
    "categories": ["landmark"],
    "url": null
  },
  {
    "name": "Ronald Feldman Gallery",
    "lat": 40.7210659,
    "lon": -74.0017338,
    "icon": null,
    "imageURL": null,
    "description": "Contemporary art gallery representing established and emerging artists since 1971",
    "info": null,
    "categories": ["art"],
    "url": "https://www.feldmangallery.com/"
  },
  {
    "name": "Performing Garage",
    "lat": 40.7222921,
    "lon": -74.0028487,
    "icon": null,
    "imageURL": null,
    "description": "Experimental theater space and home to The Wooster Group since 1975",
    "info": null,
    "categories": ["theater", "art"],
    "url": "https://thewoostergroup.org/"
  },
  {
    "name": "Leslie-Lohman Museum of Art",
    "lat": 40.721669,
    "lon": -74.00309,
    "icon": null,
    "imageURL": null,
    "description": "World's only museum exclusively focused on LGBTQ art and experience",
    "info": null,
    "categories": ["museum", "art"],
    "url": "https://www.leslielohman.org/"
  },
  {
    "name": "Film Forum",
    "lat": 40.7284097,
    "lon": -74.00433,
    "icon": null,
    "imageURL": null,
    "description": "Independent cinema showcasing foreign, documentary, and avant-garde films",
    "info": null,
    "categories": ["cinema"],
    "url": "https://www.filmforum.org/"
  },
  {
    "name": "Housing Works Bookstore",
    "lat": 40.7246035,
    "lon": -73.9965755,
    "icon": null,
    "imageURL": null,
    "description": "Charity bookstore and cafe supporting people living with HIV/AIDS",
    "info": null,
    "categories": ["bookstore", "food"],
    "url": "https://www.housingworks.org/"
  },
  {
    "name": "110 Greene St",
    "lat": 40.7245035,
    "lon": -73.9995236,
    "icon": null,
    "imageURL": null,
    "description": "Site of the sidewalk subway map installation for planning your NYC trip",
    "info": null,
    "categories": ["art", "quirky"],
    "url": null
  },
  {
    "name": "Ardea Arts / Family Opera Initiative",
    "lat": 40.722202,
    "lon": -74.001344,
    "icon": null,
    "imageURL": null,
    "description": "Arts organization creating family-friendly opera and musical theater productions",
    "info": null,
    "categories": ["theater", "music"],
    "url": "https://www.ardeaarts.org/"
  },
  {
    "name": "Saturdays NYC Crosby St",
    "lat": 40.7207375,
    "lon": -73.9993478,
    "icon": null,
    "imageURL": null,
    "description": "Surf-inspired lifestyle brand combining coffee, clothing, and beach culture",
    "info": null,
    "categories": ["shopping", "food"],
    "url": "https://www.saturdaysnyc.com/"
  },
  {
    "name": "REI",
    "lat": 40.724848,
    "lon": -73.9952085,
    "icon": null,
    "imageURL": null,
    "description": "Outdoor gear store featuring lithographs from the building's original use",
    "info": null,
    "categories": ["shopping", "historic"],
    "url": "https://www.rei.com/"
  },
  {
    "name": "Courrèges",
    "lat": 40.7214103,
    "lon": -74.0014821,
    "icon": null,
    "imageURL": null,
    "description": "Ultra-modern fashion flagship showcasing the revitalized French designer brand",
    "info": null,
    "categories": ["shopping"],
    "url": "https://www.courreges.com/"
  },
  {
    "name": "Scent Bar NYC",
    "lat": 40.7233995,
    "lon": -73.9937234,
    "icon": null,
    "imageURL": null,
    "description": "Custom perfume boutique where you can design your own signature fragrance",
    "info": null,
    "categories": ["shopping"],
    "url": "https://luckyscent.com/"
  },
  {
    "name": "Jeffrey Deitch",
    "lat": 40.721435,
    "lon": -74.003056,
    "icon": null,
    "imageURL": null,
    "description": "Contemporary art gallery known for provocative and cutting-edge exhibitions",
    "info": null,
    "categories": ["art"],
    "url": "https://www.deitch.com/"
  },
  {
    "name": "Mulberry Street Library",
    "lat": 40.7241149,
    "lon": -73.9955922,
    "icon": null,
    "imageURL": null,
    "description": "Branch of the New York Public Library serving the SoHo and Nolita communities",
    "info": null,
    "categories": ["bookstore"],
    "url": "https://www.nypl.org/"
  },
  {
    "name": "Jersey Street",
    "lat": 40.7244013,
    "lon": -73.9958753,
    "icon": null,
    "imageURL": null,
    "description": "Narrow alley-like street showcasing SoHo's intimate urban scale",
    "info": null,
    "categories": ["neighborhood", "quirky"],
    "url": null
  },
  {
    "name": "Triangle Shirtwaist Factory",
    "lat": 40.7299982,
    "lon": -73.9954675,
    "icon": null,
    "imageURL": null,
    "description": "Memorial site of the 1911 Triangle Shirtwaist Factory Fire that killed 146 workers",
    "info": null,
    "categories": ["historic", "landmark"],
    "url": null
  },
  {
    "name": "Time Landscape",
    "lat": 40.7271592,
    "lon": -73.9995168,
    "icon": null,
    "imageURL": null,
    "description": "Living artwork featuring pre-colonial plants that would have existed on this site",
    "info": null,
    "categories": ["art", "nature", "park"],
    "url": null
  },
  {
    "name": "The Evolution Store",
    "lat": 40.7281384,
    "lon": -73.9947995,
    "icon": null,
    "imageURL": null,
    "description": "Natural history store selling fossils, minerals, taxidermy, and scientific curiosities",
    "info": null,
    "categories": ["shopping", "nature"],
    "url": "https://www.theevolutionstore.com/"
  },
  {
    "name": "Fales Library",
    "lat": 40.7294322,
    "lon": -73.9971896,
    "icon": null,
    "imageURL": null,
    "description": "NYU library housing the riot grrrl collection documenting the feminist punk movement",
    "info": null,
    "categories": ["bookstore", "museum"],
    "url": "https://library.nyu.edu/"
  },
  {
    "name": "Sullivan Street Tea & Spice Company",
    "lat": 40.729192,
    "lon": -74.000276,
    "icon": null,
    "imageURL": null,
    "description": "Specialty shop offering exotic teas and spices from around the world",
    "info": null,
    "categories": ["food", "shopping"],
    "url": null
  },
  {
    "name": "Judson Memorial Church",
    "lat": 40.7302192,
    "lon": -73.9983832,
    "icon": null,
    "imageURL": null,
    "description": "Liberal arts-oriented church with gorgeous stained glass windows and rich performing arts history",
    "info": null,
    "categories": ["religious", "art", "historic"],
    "url": "https://www.judson.org/"
  },
  {
    "name": "Hagop Kevorkian Center for Near Eastern Studies",
    "lat": 40.7304792,
    "lon": -73.9988892,
    "icon": null,
    "imageURL": null,
    "description": "NYU building featuring a reconstructed 18th century Damascus home in the lobby",
    "info": null,
    "categories": ["museum", "historic"],
    "url": "https://as.nyu.edu/kevorkian.html"
  },
  {
    "name": "West 4th Street Courts",
    "lat": 40.7312111,
    "lon": -74.0008609,
    "icon": null,
    "imageURL": null,
    "description": "Famous outdoor basketball courts known as The Cage, hosting legendary streetball games",
    "info": null,
    "categories": ["sports", "recreation"],
    "url": null
  },
  {
    "name": "Hangman's Elm",
    "lat": 40.7319556,
    "lon": -73.9986131,
    "icon": null,
    "imageURL": null,
    "description": "The oldest known living tree in Manhattan, shrouded in sinister legend",
    "info": null,
    "categories": ["nature", "historic", "quirky"],
    "url": null
  },
  {
    "name": "Music Inn World Instruments",
    "lat": 40.7322404,
    "lon": -74.0014381,
    "icon": null,
    "imageURL": null,
    "description": "Global instrument shop featuring Thursday night open mic sessions",
    "info": null,
    "categories": ["music", "shopping"],
    "url": "https://www.musicinn.com/"
  },
  {
    "name": "Vintage Thrift Shop",
    "lat": 40.7384699,
    "lon": -73.9836457,
    "icon": null,
    "imageURL": null,
    "description": "Longtime thrift store offering vintage clothing and unique finds",
    "info": null,
    "categories": ["shopping"],
    "url": null
  },
  {
    "name": "Merchant's House Museum",
    "lat": 40.727665,
    "lon": -73.99234,
    "icon": null,
    "imageURL": null,
    "description": "New York City's only preserved 19th-century family home with original furnishings",
    "info": null,
    "categories": ["museum", "historic"],
    "url": "https://merchantshouse.org/"
  },
  {
    "name": "Gay Street",
    "lat": 40.7336947,
    "lon": -74.0003972,
    "icon": null,
    "imageURL": null,
    "description": "Aptly-named historic street near the birthplace of the modern LGBT rights movement",
    "info": null,
    "categories": ["neighborhood", "historic"],
    "url": null
  },
  {
    "name": "The Museum of Interesting Things (advance appt only)",
    "lat": 40.7305539,
    "lon": -73.9930526,
    "icon": null,
    "imageURL": null,
    "description": "Private collection of vintage technology and curiosities, viewable by appointment",
    "info": null,
    "categories": ["museum", "quirky"],
    "url": "https://themuseumofinterestingthings.com/"
  },
  {
    "name": "Center for Italian Modern Art",
    "lat": 40.72108,
    "lon": -73.9988414,
    "icon": null,
    "imageURL": null,
    "description": "Gallery dedicated to post-war Italian art in an intimate SoHo setting",
    "info": null,
    "categories": ["museum", "art"],
    "url": "https://www.cima-nyc.com/"
  },
  {
    "name": "Posteritati Movie Poster Gallery",
    "lat": 40.7202788,
    "lon": -73.99839,
    "icon": null,
    "imageURL": null,
    "description": "Vintage movie poster gallery specializing in rare and collectible film memorabilia",
    "info": null,
    "categories": ["art", "cinema", "shopping"],
    "url": "https://www.posteritati.com/"
  },
  {
    "name": "Pearl River Mart",
    "lat": 40.720357,
    "lon": -74.0005647,
    "icon": null,
    "imageURL": null,
    "description": "Iconic store offering Chinese goods, gifts, home decor, and cultural items",
    "info": null,
    "categories": ["shopping"],
    "url": "https://www.pearlriver.com/"
  },
  {
    "name": "Magic Jewelry",
    "lat": 40.7176879,
    "lon": -74.000059,
    "icon": null,
    "imageURL": null,
    "description": "Jewelry store specializing in unique and custom pieces",
    "info": null,
    "categories": ["shopping"],
    "url": null
  },
  {
    "name": "Rally - The Museum at 446 Broadway",
    "lat": 40.7202314,
    "lon": -74.0007935,
    "icon": null,
    "imageURL": null,
    "description": "Contemporary art space featuring rotating exhibitions and installations",
    "info": null,
    "categories": ["museum", "art"],
    "url": null
  },
  {
    "name": "Hudson River Park's River Project Wetlab",
    "lat": 40.7284841,
    "lon": -74.0135025,
    "icon": null,
    "imageURL": null,
    "description": "Educational facility showcasing Hudson River marine life and ecology",
    "info": null,
    "categories": ["nature", "museum"],
    "url": "https://www.hudsonriverpark.org/"
  },
  {
    "name": "P.E. Guerin",
    "lat": 40.7382889,
    "lon": -74.0032569,
    "icon": null,
    "imageURL": null,
    "description": "America's oldest decorative hardware store, serving architects since 1857",
    "info": null,
    "categories": ["shopping", "historic"],
    "url": "https://www.peguerin.com/"
  },
  {
    "name": "Casa Magazines",
    "lat": 40.7376595,
    "lon": -74.0045009,
    "icon": null,
    "imageURL": null,
    "description": "International newsstand offering magazines and publications from around the world",
    "info": null,
    "categories": ["bookstore", "shopping"],
    "url": null
  },
  {
    "name": "Patchin Place",
    "lat": 40.7349515,
    "lon": -73.9993057,
    "icon": null,
    "imageURL": null,
    "description": "Iconic picturesque Village street featuring NYC's last working gas streetlamp",
    "info": null,
    "categories": ["neighborhood", "historic"],
    "url": null
  },
  {
    "name": "223 W 10th St",
    "lat": 40.7340091,
    "lon": -74.0051065,
    "icon": null,
    "imageURL": null,
    "description": "Unique art gallery consisting entirely of a storefront window display",
    "info": null,
    "categories": ["art", "quirky"],
    "url": null
  },
  {
    "name": "The End of History",
    "lat": 40.7349915,
    "lon": -74.0058319,
    "icon": null,
    "imageURL": null,
    "description": "Vintage shop specializing in mid-century modern furniture and design objects",
    "info": null,
    "categories": ["shopping"],
    "url": null
  },
  {
    "name": "Three Lives & Company",
    "lat": 40.734387,
    "lon": -74.0015401,
    "icon": null,
    "imageURL": null,
    "description": "Beloved independent bookstore serving the Village community since 1978",
    "info": null,
    "categories": ["bookstore"],
    "url": "https://threelives.com/"
  },
  {
    "name": "Greenwich Letterpress",
    "lat": 40.7340613,
    "lon": -74.0005639,
    "icon": null,
    "imageURL": null,
    "description": "Traditional letterpress printing studio creating custom stationery and invitations",
    "info": null,
    "categories": ["art", "shopping"],
    "url": "https://greenwichletterpress.com/"
  },
  {
    "name": "Stonewall National Monument",
    "lat": 40.7335778,
    "lon": -74.0023407,
    "icon": null,
    "imageURL": null,
    "description": "First national monument dedicated to LGBTQ rights and history",
    "info": null,
    "categories": ["historic", "landmark"],
    "url": "https://www.nps.gov/ston/"
  },
  {
    "name": "Grove Street",
    "lat": 40.7329892,
    "lon": -74.0037707,
    "icon": null,
    "imageURL": null,
    "description": "Quintessential West Village street lined with historic townhouses",
    "info": null,
    "categories": ["neighborhood", "historic"],
    "url": null
  },
  {
    "name": "Greenwich Locksmiths",
    "lat": 40.7314296,
    "lon": -74.004262,
    "icon": null,
    "imageURL": null,
    "description": "The smallest freestanding building in NYC, housing a working locksmith shop",
    "info": null,
    "categories": ["quirky", "landmark"],
    "url": null
  },
  {
    "name": "Marie's Crisis Café",
    "lat": 40.733221,
    "lon": -74.0034023,
    "icon": null,
    "imageURL": null,
    "description": "Historic piano bar where patrons sing Broadway show tunes around the piano",
    "info": null,
    "categories": ["drinking", "music", "historic"],
    "url": null
  },
  {
    "name": "IFC Center peephole",
    "lat": 40.7312056,
    "lon": -74.0016722,
    "icon": null,
    "imageURL": null,
    "description": "Secret peephole offering sneak peeks at movies being shown inside",
    "info": null,
    "categories": ["cinema", "quirky"],
    "url": "https://www.ifccenter.com/"
  },
  {
    "name": "Anna-Maria and Stephen Kellen Gallery | Parsons School of Design",
    "lat": 40.7351593,
    "lon": -73.9944671,
    "icon": null,
    "imageURL": null,
    "description": "Contemporary art gallery showcasing student and faculty work at Parsons",
    "info": null,
    "categories": ["art"],
    "url": "https://www.newschool.edu/"
  },
  {
    "name": "Salmagundi Club",
    "lat": 40.7343498,
    "lon": -73.9945822,
    "icon": null,
    "imageURL": null,
    "description": "Historic art club founded in 1871, featuring galleries and artist studios",
    "info": null,
    "categories": ["art", "historic"],
    "url": "https://www.salmagundi.org/"
  },
  {
    "name": "The Meadow - Mulberry St.",
    "lat": 40.7227913,
    "lon": -73.9956975,
    "icon": null,
    "imageURL": null,
    "description": "Specialty shop focusing on artisanal salts, chocolates, and cocktail bitters",
    "info": null,
    "categories": ["food", "shopping"],
    "url": "https://www.themeadow.com/"
  },
  {
    "name": "Chess Forum",
    "lat": 40.7291673,
    "lon": -73.999299,
    "icon": null,
    "imageURL": null,
    "description": "Chess shop and playing space where enthusiasts gather for games and lessons",
    "info": null,
    "categories": ["recreation", "shopping"],
    "url": "https://www.chessforum.com/"
  },
  {
    "name": "The Uncommons",
    "lat": 40.7294104,
    "lon": -73.9987065,
    "icon": null,
    "imageURL": null,
    "description": "Board game cafe with hundreds of games available for play",
    "info": null,
    "categories": ["recreation", "food"],
    "url": "https://www.uncommonsnyc.com/"
  },
  {
    "name": "Jack H. Skirball Center For The Performing Arts",
    "lat": 40.7297963,
    "lon": -73.9977487,
    "icon": null,
    "imageURL": null,
    "description": "NYU's premier performing arts venue hosting theater, dance, and music",
    "info": null,
    "categories": ["theater", "music"],
    "url": "https://www.skirballcenter.nyu.edu/"
  },
  {
    "name": "NYU broadway windows",
    "lat": 40.7317385,
    "lon": -73.9914637,
    "icon": null,
    "imageURL": null,
    "description": "Rotating art exhibitions displayed in street-viewable windows",
    "info": null,
    "categories": ["art"],
    "url": null
  },
  {
    "name": "Grace Church",
    "lat": 40.731975,
    "lon": -73.990902,
    "icon": null,
    "imageURL": null,
    "description": "Gothic Revival church offering free Bach concerts at noon Monday through Friday",
    "info": null,
    "categories": ["religious", "music", "historic"],
    "url": "https://www.gracechurchnyc.org/"
  },
  {
    "name": "Gothic Renaissance",
    "lat": 40.7325028,
    "lon": -73.990493,
    "icon": null,
    "imageURL": null,
    "description": "Gothic and alternative fashion and accessories boutique",
    "info": null,
    "categories": ["shopping"],
    "url": null
  },
  {
    "name": "Halloween Adventure Shop",
    "lat": 40.7323586,
    "lon": -73.9904637,
    "icon": null,
    "imageURL": null,
    "description": "Year-round costume and theatrical supplies store",
    "info": null,
    "categories": ["shopping"],
    "url": "https://www.halloweenadventure.com/"
  },
  {
    "name": "7 E 10th St",
    "lat": 40.7332774,
    "lon": -73.9946311,
    "icon": null,
    "imageURL": null,
    "description": "Unique house built in Indian style with distinctive teak balcony on a charming Village street",
    "info": null,
    "categories": ["historic", "landmark"],
    "url": null
  },
  {
    "name": "120 E 12th St",
    "lat": 40.732104,
    "lon": -73.9892975,
    "icon": null,
    "imageURL": null,
    "description": "Preserved facade of St Ann's church, retained when NYU built a dormitory",
    "info": null,
    "categories": ["historic", "landmark"],
    "url": null
  },
  {
    "name": "Strand Book Store",
    "lat": 40.7332515,
    "lon": -73.9909532,
    "icon": null,
    "imageURL": null,
    "description": "Legendary independent bookstore with 18 miles of books since 1927",
    "info": null,
    "categories": ["bookstore"],
    "url": "https://www.strandbookstore.com/"
  },
  {
    "name": "Washington Mews",
    "lat": 40.7315115,
    "lon": -73.9958273,
    "icon": null,
    "imageURL": null,
    "description": "Picturesque cobblestone street lined with former carriage houses",
    "info": null,
    "categories": ["neighborhood", "historic"],
    "url": null
  },
  {
    "name": "The Alchemists Kitchen",
    "lat": 40.7243483,
    "lon": -73.9964318,
    "icon": null,
    "imageURL": null,
    "description": "Herbal apothecary and wellness shop specializing in natural remedies",
    "info": null,
    "categories": ["shopping"],
    "url": "https://www.thealchemistskitchen.com/"
  },
  {
    "name": "Company Gallery",
    "lat": 40.72008,
    "lon": -73.9952908,
    "icon": null,
    "imageURL": null,
    "description": "Contemporary art gallery featuring emerging and established artists",
    "info": null,
    "categories": ["art"],
    "url": "https://companygallery.us/"
  },
  {
    "name": "Little Island",
    "lat": 40.7420024,
    "lon": -74.010299,
    "icon": null,
    "imageURL": null,
    "description": "Innovative floating park and performance space designed by Thomas Heatherwick",
    "info": null,
    "categories": ["park", "art", "theater"],
    "url": "https://littleisland.org/"
  },
  {
    "name": "Whitney Museum of American Art",
    "lat": 40.7395877,
    "lon": -74.0088629,
    "icon": null,
    "imageURL": null,
    "description": "Premier museum of American contemporary and modern art in the Meatpacking District",
    "info": null,
    "categories": ["museum", "art"],
    "url": "https://whitney.org/"
  },
  {
    "name": "Village Vanguard",
    "lat": 40.7360334,
    "lon": -74.0016548,
    "icon": null,
    "imageURL": null,
    "description": "Legendary jazz club operating since 1935, hosting the world's greatest musicians",
    "info": null,
    "categories": ["music", "drinking", "historic"],
    "url": "https://villagevanguard.com/"
  },
  {
    "name": "The New York Earth Room",
    "lat": 40.7260386,
    "lon": -73.9999441,
    "icon": null,
    "imageURL": null,
    "description": "Walter De Maria's installation featuring 280,000 pounds of dirt in a SoHo gallery",
    "info": null,
    "categories": ["art", "museum"],
    "url": "https://www.diaart.org/"
  }
]
