[
  {
    "id": 1,
    "name": "Deutsches Architekturmuseum",
    "lat": 50.1144612,
    "lon": 8.7096534,
    "icon": "museum",
    "imageURL": null,
    "description": "Celebrates architecture with rotating exhibitions, models, and interactive displays housed in a historic villa.",
    "info": ""
  },
  {
    "id": 2,
    "name": "MAIN TOWER Observation Deck",
    "lat": 50.11254,
    "lon": 8.67214,
    "icon": null,
    "imageURL": null,
    "description": "Offers panoramic views of Frankfurt from one of its tallest skyscrapers, with glass walls and an outdoor terrace.",
    "info": ""
  },
  {
    "id": 3,
    "name": "Roßmarkt",
    "lat": 50.1123889,
    "lon": 8.6775447,
    "icon": "walking",
    "imageURL": null,
    "description": "Historic square surrounded by shopping and dining options, often hosting events and seasonal markets.",
    "info": ""
  },
  {
    "id": 4,
    "name": "Römerberg",
    "lat": 50.1102879,
    "lon": 8.6821547,
    "icon": "walking",
    "imageURL": null,
    "description": "picturesque town square; the historical focal point of the city, a cobbled plaza lined with original and reconstructed half-timber medieval buildings including the Römer (Frankfurt’s town hall) and the Alte Nikolaikirche (St Nicholas’ Church), which you can visit if there are no meetings or events on.",
    "info": ""
  },
  {
    "id": 5,
    "name": "Iron Footbridge",
    "lat": 50.1081108,
    "lon": 8.6821289,
    "icon": "walking",
    "imageURL": null,
    "description": "Fantastic views and thousands of love locks. ",
    "info": ""
  },
  {
    "id": 6,
    "name": "Alter Flugplatz Frankfurt am Main",
    "lat": 50.1777795,
    "lon": 8.6596506,
    "icon": null,
    "imageURL": null,
    "description": "Revitalization efforts converted a former U.S. military heliport into a sprawling urban park. ",
    "info": ""
  },
  {
    "id": 7,
    "name": "Frankfurt Cathedral",
    "lat": 50.1106631,
    "lon": 8.6854204,
    "icon": null,
    "imageURL": null,
    "description": "A towering Gothic cathedral that hosted Holy Roman Empire coronations; climb the tower for city views.",
    "info": ""
  },
  {
    "id": 8,
    "name": "Historisches Museum Frankfurt",
    "lat": 50.10945,
    "lon": 8.6825014,
    "icon": "museum",
    "imageURL": null,
    "description": "Covers Frankfurt’s history from the Middle Ages to today, with interactive exhibits and city models.",
    "info": ""
  },
  {
    "id": 9,
    "name": "Städel Museum",
    "lat": 50.1030925,
    "lon": 8.6740583,
    "icon": "museum",
    "imageURL": null,
    "description": "One of Germany’s most important art museums, housing European masterpieces from the 14th century to modern times.",
    "info": ""
  },
  {
    "id": 10,
    "name": "Verkehrsmuseum Frankfurt am Main",
    "lat": 50.0821164,
    "lon": 8.5812956,
    "icon": "museum",
    "imageURL": null,
    "description": "This museum explores the history of the city's public transportation. Its collection includes the world's oldest preserved electric trolley car. ",
    "info": ""
  },
  {
    "id": 11,
    "name": "Kleinmarkthalle",
    "lat": 50.112667,
    "lon": 8.6828851,
    "icon": null,
    "imageURL": null,
    "description": "Indoor food market offering local specialties, wines, flowers, and international treats—a local favorite for snacks and gifts.",
    "info": ""
  },
  {
    "id": 12,
    "name": "Flemings Selection Hotel Frankfurt-City - paternoster",
    "lat": 50.1175013,
    "lon": 8.67986,
    "icon": null,
    "imageURL": null,
    "description": "The lift is currently working, although passengers can only disembark on the top floor when the bar is open (starting at 5:30 pm) . Otherwise you get out on the 5th floor and walk up one flight of stairs.",
    "info": ""
  },
  {
    "id": 13,
    "name": "IG Farben Building",
    "lat": 50.1256689,
    "lon": 8.6673925,
    "icon": null,
    "imageURL": null,
    "description": "From Nazi chemicals to the CIA, this architectural marvel has played a fascinating role in German history. ",
    "info": ""
  },
  {
    "id": 14,
    "name": "Dialog Museum",
    "lat": 50.1131316,
    "lon": 8.6785072,
    "icon": "green",
    "imageURL": null,
    "description": "This unique exhibit \"Dialogue in the Dark\" reverses roles as the visionless become guides and the sighted become ‘blind.’ ",
    "info": ""
  },
  {
    "id": 15,
    "name": "Pinkelbaum",
    "lat": 50.0714584,
    "lon": 8.6817228,
    "icon": null,
    "imageURL": null,
    "description": "After years of being casually peed on by humans, this tree is peeing back.",
    "info": ""
  },
  {
    "id": 16,
    "name": "Bockenheimer Warte",
    "lat": 50.1200498,
    "lon": 8.6513852,
    "icon": null,
    "imageURL": null,
    "description": "The entrance to this Frankfurt subway station looks like an old tram car crashed into the concrete sidewalk.  ",
    "info": ""
  },
  {
    "id": 17,
    "name": "Apfelwein Wagner",
    "lat": 50.1005298,
    "lon": 8.6819641,
    "icon": null,
    "imageURL": null,
    "description": "Traditional tavern serving Frankfurt’s iconic apple wine (Apfelwein) and hearty Hessian fare in a cozy, wood-paneled setting.",
    "info": ""
  },
  {
    "id": 18,
    "name": "Museum Applied Art",
    "lat": 50.10631,
    "lon": 8.6806,
    "icon": "museum",
    "imageURL": null,
    "description": "Houses decorative arts and design from around the world in a striking Richard Meier-designed building.",
    "info": ""
  },
  {
    "id": 19,
    "name": "Zum Gemalten Haus",
    "lat": 50.1007,
    "lon": 8.681932,
    "icon": null,
    "imageURL": null,
    "description": "Famous for its hand-painted façade and traditional Apfelwein, this rustic pub is a classic Sachsenhausen stop.",
    "info": ""
  },
  {
    "id": 20,
    "name": "Mal Seh'n cinema e.V.",
    "lat": 50.1240196,
    "lon": 8.6856517,
    "icon": null,
    "imageURL": null,
    "description": "A beloved indie cinema known for arthouse films, festivals, and its cozy, intimate atmosphere.",
    "info": ""
  },
  {
    "id": 21,
    "name": "Bauernmarkt Konstablerwache",
    "lat": 50.114476,
    "lon": 8.6869562,
    "icon": null,
    "imageURL": null,
    "description": "thursday and saturday there's always a weekly regional farmers market on top of the train station \"Konstablerwache\"(it's in the city centre) they offer some very good sausages and there's also one sausage stand that sells apple juice as well, it's so good. There's also a tiny butchers cart hidden in the back he sells a very good pulled beef sandwich for very cheap and there's also a foodtruck which sells dairy products (ice cream, milkshakes etc.",
    "info": ""
  },
  {
    "id": 22,
    "name": "Goetheturm",
    "lat": 50.0889961,
    "lon": 8.7113757,
    "icon": null,
    "imageURL": null,
    "description": "A 43-meter wooden observation tower in the city forest, offering panoramic views and peaceful trails.",
    "info": ""
  },
  {
    "id": 23,
    "name": "Goethe House",
    "lat": 50.1113414,
    "lon": 8.6776096,
    "icon": "museum",
    "imageURL": null,
    "description": "Birthplace of Johann Wolfgang von Goethe, now a museum showcasing period furnishings and the writer’s legacy.",
    "info": ""
  },
  {
  "id": 24,
  "name": "Alte Oper",
  "lat": 50.1160319,
  "lon": 8.671916,
  "icon": null,
  "imageURL": null,
  "description": "Frankfurt's most beautiful concert hall hosts pop and jazz concerts, musicals and a festival that makes classical music accessible to everyone. Everything but operas.\n\nIf she were a person, you could call her the \"grande dame\" of Frankfurt's cultural institutions: the Alte Oper. ...",
  "info": ""
},
  {
    "id": 25,
    "name": "Café im Liebieghaus",
    "lat": 50.1020121,
    "lon": 8.6718295,
    "icon": "green",
    "imageURL": null,
    "description": "Charming garden café located inside the sculpture museum—perfect for coffee and cake among marble statues.",
    "info": ""
  },
  {
    "id": 26,
    "name": "Höchster Schloßplatz",
    "lat": 50.0986095,
    "lon": 8.5476908,
    "icon": null,
    "imageURL": null,
    "description": "Historic square in the Höchst district featuring a medieval castle, cobbled streets, and occasional markets.",
    "info": ""
  },
  {
    "id": 27,
    "name": "Museumsufer",
    "lat": 50.1070068,
    "lon": 8.6880138,
    "icon": "walking",
    "imageURL": null,
    "description": "The strip holds thirteen of the city's museums, all located in wonderfully restored villas from the 1900s set between structures dating back to the 1800s. Internationally acclaimed architects such as Richard Meier and Oswald Mathias Ungers have extended the existing buildings with modern additions. Museums found here include the Film Museum, the Museum of Applied Art, the Jewish Museum and the Architecture Museum",
       "info": ""
  }
]
